lat	lon	Name	Spezialisierung	Anzahl Pl채tze	Adresse
47.55393337	7.575958969	BSB: Tagesbetreuung Weiherweg	Allgemeine Tagesstruktur	10	Rudolfstrasse 43, 4054 Basel
47.57172861	7.616583161	Sternenhof: Tagesbetreuung Egliseeholz	Allgemeine Tagesstruktur	52	Fasanenstrasse 221, 4058 Basel
47.56888591	7.567477054	Sternenhof: Tagesbetreuung Luzernerring	Allgemeine Tagesstruktur	25	Luzernerring 94, 4056 Basel
47.58745942	7.654611294	Wendelin: Tagesheim	Allgemeine Tagesstruktur	21	Inzlingerstrasse 46, 4125 Riehen
47.56589273	7.596732747	dandelion: Tagesbetreuung	Spezialisierte Tagesstruktur: Demenz	12	Sperrstrasse 100, 4057 Basel
47.56854322	7.567077517	Sternenhof: Tagesbetreuung Luzernerring	Spezialisierte Tagesstruktur: Demenz	13	Luzernerring 94, 4056 Basel
47.56826724	7.594992633	Stiftung Basler Wirrgarten: Tagesst채tte im ATRIUM	Spezialisierte Tagesstruktur: Demenz	10	Hammerstrasse 156, 4057 Basel
47.56239822	7.590687498	Stiftung Rheinleben: Tagesst채tte 65+	Spezialisierte Tagesstruktur: Psychische Beeintr채chtigung	14	Klingental 1, 4058 Basel
